[
  {
    "city": "Bogotá",
    "country": "Colombia",
    "lat": 4.711,
    "lon": -74.072,
    "utc": "-05:00"
  },
  {
    "city": "Medellín",
    "country": "Colombia",
    "lat": 6.244,
    "lon": -75.581,
    "utc": "-05:00"
  },
  {
    "city": "Cali",
    "country": "Colombia",
    "lat": 3.451,
    "lon": -76.532,
    "utc": "-05:00"
  },
  {
    "city": "Barranquilla",
    "country": "Colombia",
    "lat": 10.963,
    "lon": -74.797,
    "utc": "-05:00"
  },
  {
    "city": "Cartagena",
    "country": "Colombia",
    "lat": 10.391,
    "lon": -75.479,
    "utc": "-05:00"
  },
  {
    "city": "Cúcuta",
    "country": "Colombia",
    "lat": 7.894,
    "lon": -72.507,
    "utc": "-05:00"
  },
  {
    "city": "Bucaramanga",
    "country": "Colombia",
    "lat": 7.119,
    "lon": -73.123,
    "utc": "-05:00"
  },
  {
    "city": "Pereira",
    "country": "Colombia",
    "lat": 4.814,
    "lon": -75.694,
    "utc": "-05:00"
  },
  {
    "city": "Santa Marta",
    "country": "Colombia",
    "lat": 11.24,
    "lon": -74.199,
    "utc": "-05:00"
  },
  {
    "city": "Ibagué",
    "country": "Colombia",
    "lat": 4.438,
    "lon": -75.233,
    "utc": "-05:00"
  },
  {
    "city": "Pasto",
    "country": "Colombia",
    "lat": 1.214,
    "lon": -77.281,
    "utc": "-05:00"
  },
  {
    "city": "Manizales",
    "country": "Colombia",
    "lat": 5.07,
    "lon": -75.513,
    "utc": "-05:00"
  },
  {
    "city": "Villavicencio",
    "country": "Colombia",
    "lat": 4.142,
    "lon": -73.626,
    "utc": "-05:00"
  },
  {
    "city": "Neiva",
    "country": "Colombia",
    "lat": 2.927,
    "lon": -75.281,
    "utc": "-05:00"
  },
  {
    "city": "Armenia",
    "country": "Colombia",
    "lat": 4.535,
    "lon": -75.681,
    "utc": "-05:00"
  },
  {
    "city": "Valledupar",
    "country": "Colombia",
    "lat": 10.463,
    "lon": -73.253,
    "utc": "-05:00"
  },
  {
    "city": "Montería",
    "country": "Colombia",
    "lat": 8.75,
    "lon": -75.882,
    "utc": "-05:00"
  },
  {
    "city": "Sincelejo",
    "country": "Colombia",
    "lat": 9.304,
    "lon": -75.397,
    "utc": "-05:00"
  },
  {
    "city": "Popayán",
    "country": "Colombia",
    "lat": 2.444,
    "lon": -76.614,
    "utc": "-05:00"
  },
  {
    "city": "Tunja",
    "country": "Colombia",
    "lat": 5.535,
    "lon": -73.367,
    "utc": "-05:00"
  },
  {
    "city": "Floridablanca",
    "country": "Colombia",
    "lat": 7.063,
    "lon": -73.086,
    "utc": "-05:00"
  },
  {
    "city": "Soledad",
    "country": "Colombia",
    "lat": 10.918,
    "lon": -74.766,
    "utc": "-05:00"
  },
  {
    "city": "Palmira",
    "country": "Colombia",
    "lat": 3.54,
    "lon": -76.303,
    "utc": "-05:00"
  },
  {
    "city": "Buenaventura",
    "country": "Colombia",
    "lat": 3.877,
    "lon": -77.031,
    "utc": "-05:00"
  },
  {
    "city": "Riohacha",
    "country": "Colombia",
    "lat": 11.544,
    "lon": -72.907,
    "utc": "-05:00"
  },
  {
    "city": "Yopal",
    "country": "Colombia",
    "lat": 5.348,
    "lon": -72.406,
    "utc": "-05:00"
  },
  {
    "city": "Quibdó",
    "country": "Colombia",
    "lat": 5.695,
    "lon": -76.658,
    "utc": "-05:00"
  },
  {
    "city": "Florencia",
    "country": "Colombia",
    "lat": 1.615,
    "lon": -75.615,
    "utc": "-05:00"
  },
  {
    "city": "Dosquebradas",
    "country": "Colombia",
    "lat": 4.839,
    "lon": -75.667,
    "utc": "-05:00"
  },
  {
    "city": "Apartadó",
    "country": "Colombia",
    "lat": 7.883,
    "lon": -76.634,
    "utc": "-05:00"
  },
  {
    "city": "Turbo",
    "country": "Colombia",
    "lat": 8.093,
    "lon": -76.73,
    "utc": "-05:00"
  },
  {
    "city": "Girón",
    "country": "Colombia",
    "lat": 7.069,
    "lon": -73.17,
    "utc": "-05:00"
  },
  {
    "city": "Envigado",
    "country": "Colombia",
    "lat": 6.171,
    "lon": -75.586,
    "utc": "-05:00"
  },
  {
    "city": "Itagüí",
    "country": "Colombia",
    "lat": 6.184,
    "lon": -75.6,
    "utc": "-05:00"
  },
  {
    "city": "Bello",
    "country": "Colombia",
    "lat": 6.338,
    "lon": -75.557,
    "utc": "-05:00"
  },
  {
    "city": "Rionegro",
    "country": "Colombia",
    "lat": 6.155,
    "lon": -75.374,
    "utc": "-05:00"
  },
  {
    "city": "Sabaneta",
    "country": "Colombia",
    "lat": 6.151,
    "lon": -75.615,
    "utc": "-05:00"
  },
  {
    "city": "La Estrella",
    "country": "Colombia",
    "lat": 6.158,
    "lon": -75.643,
    "utc": "-05:00"
  },
  {
    "city": "Copacabana",
    "country": "Colombia",
    "lat": 6.347,
    "lon": -75.509,
    "utc": "-05:00"
  },
  {
    "city": "Caucasia",
    "country": "Colombia",
    "lat": 7.987,
    "lon": -75.193,
    "utc": "-05:00"
  },
  {
    "city": "Necoclí",
    "country": "Colombia",
    "lat": 8.424,
    "lon": -76.789,
    "utc": "-05:00"
  },
  {
    "city": "Santa Fe de Antioquia",
    "country": "Colombia",
    "lat": 6.556,
    "lon": -75.826,
    "utc": "-05:00"
  },
  {
    "city": "Andes",
    "country": "Colombia",
    "lat": 5.656,
    "lon": -75.878,
    "utc": "-05:00"
  },
  {
    "city": "Jardín",
    "country": "Colombia",
    "lat": 5.599,
    "lon": -75.82,
    "utc": "-05:00"
  },
  {
    "city": "Jericó",
    "country": "Colombia",
    "lat": 5.79,
    "lon": -75.786,
    "utc": "-05:00"
  },
  {
    "city": "Puerto Berrío",
    "country": "Colombia",
    "lat": 6.491,
    "lon": -74.405,
    "utc": "-05:00"
  },
  {
    "city": "Puerto Triunfo",
    "country": "Colombia",
    "lat": 5.872,
    "lon": -74.646,
    "utc": "-05:00"
  },
  {
    "city": "Marinilla",
    "country": "Colombia",
    "lat": 6.173,
    "lon": -75.336,
    "utc": "-05:00"
  },
  {
    "city": "Guarne",
    "country": "Colombia",
    "lat": 6.28,
    "lon": -75.442,
    "utc": "-05:00"
  },
  {
    "city": "El Carmen de Viboral",
    "country": "Colombia",
    "lat": 6.082,
    "lon": -75.335,
    "utc": "-05:00"
  },
  {
    "city": "La Ceja",
    "country": "Colombia",
    "lat": 6.031,
    "lon": -75.431,
    "utc": "-05:00"
  },
  {
    "city": "Yarumal",
    "country": "Colombia",
    "lat": 6.964,
    "lon": -75.417,
    "utc": "-05:00"
  },
  {
    "city": "Caldas",
    "country": "Colombia",
    "lat": 6.092,
    "lon": -75.636,
    "utc": "-05:00"
  },
  {
    "city": "Chía",
    "country": "Colombia",
    "lat": 4.86,
    "lon": -74.037,
    "utc": "-05:00"
  },
  {
    "city": "Zipaquirá",
    "country": "Colombia",
    "lat": 5.022,
    "lon": -74.004,
    "utc": "-05:00"
  },
  {
    "city": "Cajicá",
    "country": "Colombia",
    "lat": 4.918,
    "lon": -74.028,
    "utc": "-05:00"
  },
  {
    "city": "Cota",
    "country": "Colombia",
    "lat": 4.809,
    "lon": -74.099,
    "utc": "-05:00"
  },
  {
    "city": "Funza",
    "country": "Colombia",
    "lat": 4.717,
    "lon": -74.211,
    "utc": "-05:00"
  },
  {
    "city": "Mosquera",
    "country": "Colombia",
    "lat": 4.706,
    "lon": -74.23,
    "utc": "-05:00"
  },
  {
    "city": "Madrid",
    "country": "Colombia",
    "lat": 4.731,
    "lon": -74.264,
    "utc": "-05:00"
  },
  {
    "city": "Facatativá",
    "country": "Colombia",
    "lat": 4.816,
    "lon": -74.364,
    "utc": "-05:00"
  },
  {
    "city": "Soacha",
    "country": "Colombia",
    "lat": 4.579,
    "lon": -74.216,
    "utc": "-05:00"
  },
  {
    "city": "Sibaté",
    "country": "Colombia",
    "lat": 4.49,
    "lon": -74.259,
    "utc": "-05:00"
  },
  {
    "city": "La Calera",
    "country": "Colombia",
    "lat": 4.721,
    "lon": -73.97,
    "utc": "-05:00"
  },
  {
    "city": "Fusagasugá",
    "country": "Colombia",
    "lat": 4.337,
    "lon": -74.364,
    "utc": "-05:00"
  },
  {
    "city": "Girardot",
    "country": "Colombia",
    "lat": 4.305,
    "lon": -74.807,
    "utc": "-05:00"
  },
  {
    "city": "Villeta",
    "country": "Colombia",
    "lat": 5.009,
    "lon": -74.473,
    "utc": "-05:00"
  },
  {
    "city": "Ubaté",
    "country": "Colombia",
    "lat": 5.309,
    "lon": -73.815,
    "utc": "-05:00"
  },
  {
    "city": "Tocancipá",
    "country": "Colombia",
    "lat": 4.965,
    "lon": -73.914,
    "utc": "-05:00"
  },
  {
    "city": "Sopó",
    "country": "Colombia",
    "lat": 4.908,
    "lon": -73.94,
    "utc": "-05:00"
  },
  {
    "city": "Tabio",
    "country": "Colombia",
    "lat": 4.917,
    "lon": -74.094,
    "utc": "-05:00"
  },
  {
    "city": "Tenjo",
    "country": "Colombia",
    "lat": 4.872,
    "lon": -74.144,
    "utc": "-05:00"
  },
  {
    "city": "Gachancipá",
    "country": "Colombia",
    "lat": 4.992,
    "lon": -73.872,
    "utc": "-05:00"
  },
  {
    "city": "Pacho",
    "country": "Colombia",
    "lat": 5.133,
    "lon": -74.161,
    "utc": "-05:00"
  },
  {
    "city": "Guaduas",
    "country": "Colombia",
    "lat": 5.073,
    "lon": -74.599,
    "utc": "-05:00"
  },
  {
    "city": "Honda",
    "country": "Colombia",
    "lat": 5.205,
    "lon": -74.736,
    "utc": "-05:00"
  },
  {
    "city": "Sogamoso",
    "country": "Colombia",
    "lat": 5.714,
    "lon": -72.933,
    "utc": "-05:00"
  },
  {
    "city": "Duitama",
    "country": "Colombia",
    "lat": 5.827,
    "lon": -73.034,
    "utc": "-05:00"
  },
  {
    "city": "Paipa",
    "country": "Colombia",
    "lat": 5.78,
    "lon": -73.118,
    "utc": "-05:00"
  },
  {
    "city": "Chiquinquirá",
    "country": "Colombia",
    "lat": 5.617,
    "lon": -73.817,
    "utc": "-05:00"
  },
  {
    "city": "Villa de Leyva",
    "country": "Colombia",
    "lat": 5.633,
    "lon": -73.525,
    "utc": "-05:00"
  },
  {
    "city": "Puerto Boyacá",
    "country": "Colombia",
    "lat": 5.978,
    "lon": -74.588,
    "utc": "-05:00"
  },
  {
    "city": "Garagoa",
    "country": "Colombia",
    "lat": 5.083,
    "lon": -73.364,
    "utc": "-05:00"
  },
  {
    "city": "Pamplona",
    "country": "Colombia",
    "lat": 7.376,
    "lon": -72.65,
    "utc": "-05:00"
  },
  {
    "city": "Ocaña",
    "country": "Colombia",
    "lat": 8.241,
    "lon": -73.354,
    "utc": "-05:00"
  },
  {
    "city": "Los Patios",
    "country": "Colombia",
    "lat": 7.837,
    "lon": -72.505,
    "utc": "-05:00"
  },
  {
    "city": "Villa del Rosario",
    "country": "Colombia",
    "lat": 7.758,
    "lon": -72.483,
    "utc": "-05:00"
  },
  {
    "city": "Aguachica",
    "country": "Colombia",
    "lat": 8.308,
    "lon": -73.617,
    "utc": "-05:00"
  },
  {
    "city": "Bosconia",
    "country": "Colombia",
    "lat": 9.974,
    "lon": -73.891,
    "utc": "-05:00"
  },
  {
    "city": "Aguazul",
    "country": "Colombia",
    "lat": 5.173,
    "lon": -72.548,
    "utc": "-05:00"
  },
  {
    "city": "Tauramena",
    "country": "Colombia",
    "lat": 5.017,
    "lon": -72.747,
    "utc": "-05:00"
  },
  {
    "city": "Puerto López",
    "country": "Colombia",
    "lat": 4.088,
    "lon": -72.956,
    "utc": "-05:00"
  },
  {
    "city": "Acacías",
    "country": "Colombia",
    "lat": 3.987,
    "lon": -73.759,
    "utc": "-05:00"
  },
  {
    "city": "Granada",
    "country": "Colombia",
    "lat": 3.546,
    "lon": -73.706,
    "utc": "-05:00"
  },
  {
    "city": "San Martín",
    "country": "Colombia",
    "lat": 3.696,
    "lon": -73.699,
    "utc": "-05:00"
  },
  {
    "city": "Puerto Gaitán",
    "country": "Colombia",
    "lat": 4.314,
    "lon": -72.082,
    "utc": "-05:00"
  },
  {
    "city": "Mocoa",
    "country": "Colombia",
    "lat": 1.149,
    "lon": -76.647,
    "utc": "-05:00"
  },
  {
    "city": "Ipiales",
    "country": "Colombia",
    "lat": 0.83,
    "lon": -77.644,
    "utc": "-05:00"
  },
  {
    "city": "Tumaco",
    "country": "Colombia",
    "lat": 1.809,
    "lon": -78.764,
    "utc": "-05:00"
  },
  {
    "city": "Túquerres",
    "country": "Colombia",
    "lat": 1.087,
    "lon": -77.618,
    "utc": "-05:00"
  },
  {
    "city": "Sandoná",
    "country": "Colombia",
    "lat": 1.287,
    "lon": -77.472,
    "utc": "-05:00"
  },
  {
    "city": "Pitalito",
    "country": "Colombia",
    "lat": 1.853,
    "lon": -76.048,
    "utc": "-05:00"
  },
  {
    "city": "Garzón",
    "country": "Colombia",
    "lat": 2.196,
    "lon": -75.628,
    "utc": "-05:00"
  },
  {
    "city": "La Plata",
    "country": "Colombia",
    "lat": 2.393,
    "lon": -75.892,
    "utc": "-05:00"
  },
  {
    "city": "Campoalegre",
    "country": "Colombia",
    "lat": 2.687,
    "lon": -75.326,
    "utc": "-05:00"
  },
  {
    "city": "San Agustín",
    "country": "Colombia",
    "lat": 1.879,
    "lon": -76.268,
    "utc": "-05:00"
  },
  {
    "city": "Cartago",
    "country": "Colombia",
    "lat": 4.746,
    "lon": -75.911,
    "utc": "-05:00"
  },
  {
    "city": "Tuluá",
    "country": "Colombia",
    "lat": 4.089,
    "lon": -76.196,
    "utc": "-05:00"
  },
  {
    "city": "Buga",
    "country": "Colombia",
    "lat": 3.902,
    "lon": -76.297,
    "utc": "-05:00"
  },
  {
    "city": "Jamundí",
    "country": "Colombia",
    "lat": 3.26,
    "lon": -76.535,
    "utc": "-05:00"
  },
  {
    "city": "Yumbo",
    "country": "Colombia",
    "lat": 3.583,
    "lon": -76.495,
    "utc": "-05:00"
  },
  {
    "city": "Candelaria",
    "country": "Colombia",
    "lat": 3.407,
    "lon": -76.348,
    "utc": "-05:00"
  },
  {
    "city": "Zarzal",
    "country": "Colombia",
    "lat": 4.394,
    "lon": -76.072,
    "utc": "-05:00"
  },
  {
    "city": "Sevilla",
    "country": "Colombia",
    "lat": 4.264,
    "lon": -75.931,
    "utc": "-05:00"
  },
  {
    "city": "Caicedonia",
    "country": "Colombia",
    "lat": 4.332,
    "lon": -75.827,
    "utc": "-05:00"
  },
  {
    "city": "Roldanillo",
    "country": "Colombia",
    "lat": 4.413,
    "lon": -76.154,
    "utc": "-05:00"
  },
  {
    "city": "Santander de Quilichao",
    "country": "Colombia",
    "lat": 3.009,
    "lon": -76.487,
    "utc": "-05:00"
  },
  {
    "city": "Puerto Tejada",
    "country": "Colombia",
    "lat": 3.232,
    "lon": -76.418,
    "utc": "-05:00"
  },
  {
    "city": "Piendamó",
    "country": "Colombia",
    "lat": 2.639,
    "lon": -76.53,
    "utc": "-05:00"
  },
  {
    "city": "Guapi",
    "country": "Colombia",
    "lat": 2.57,
    "lon": -77.885,
    "utc": "-05:00"
  },
  {
    "city": "Corinto",
    "country": "Colombia",
    "lat": 3.172,
    "lon": -76.259,
    "utc": "-05:00"
  },
  {
    "city": "Patía",
    "country": "Colombia",
    "lat": 2.149,
    "lon": -77.047,
    "utc": "-05:00"
  },
  {
    "city": "Arauquita",
    "country": "Colombia",
    "lat": 7.029,
    "lon": -71.43,
    "utc": "-05:00"
  },
  {
    "city": "Arauca",
    "country": "Colombia",
    "lat": 7.085,
    "lon": -70.759,
    "utc": "-05:00"
  },
  {
    "city": "Saravena",
    "country": "Colombia",
    "lat": 6.955,
    "lon": -71.873,
    "utc": "-05:00"
  },
  {
    "city": "Tame",
    "country": "Colombia",
    "lat": 6.46,
    "lon": -71.736,
    "utc": "-05:00"
  },
  {
    "city": "Maicao",
    "country": "Colombia",
    "lat": 11.379,
    "lon": -72.241,
    "utc": "-05:00"
  },
  {
    "city": "Uribia",
    "country": "Colombia",
    "lat": 11.713,
    "lon": -72.265,
    "utc": "-05:00"
  },
  {
    "city": "Fonseca",
    "country": "Colombia",
    "lat": 10.886,
    "lon": -72.849,
    "utc": "-05:00"
  },
  {
    "city": "San Juan del Cesar",
    "country": "Colombia",
    "lat": 10.773,
    "lon": -73.003,
    "utc": "-05:00"
  },
  {
    "city": "El Banco",
    "country": "Colombia",
    "lat": 9.0,
    "lon": -73.976,
    "utc": "-05:00"
  },
  {
    "city": "Fundación",
    "country": "Colombia",
    "lat": 10.521,
    "lon": -74.186,
    "utc": "-05:00"
  },
  {
    "city": "Aracataca",
    "country": "Colombia",
    "lat": 10.591,
    "lon": -74.188,
    "utc": "-05:00"
  },
  {
    "city": "Ciénaga",
    "country": "Colombia",
    "lat": 11.006,
    "lon": -74.247,
    "utc": "-05:00"
  },
  {
    "city": "Sabanalarga",
    "country": "Colombia",
    "lat": 10.63,
    "lon": -74.92,
    "utc": "-05:00"
  },
  {
    "city": "Malambo",
    "country": "Colombia",
    "lat": 10.859,
    "lon": -74.773,
    "utc": "-05:00"
  },
  {
    "city": "Galapa",
    "country": "Colombia",
    "lat": 10.897,
    "lon": -74.887,
    "utc": "-05:00"
  },
  {
    "city": "Baranoa",
    "country": "Colombia",
    "lat": 10.794,
    "lon": -74.92,
    "utc": "-05:00"
  },
  {
    "city": "Lorica",
    "country": "Colombia",
    "lat": 9.236,
    "lon": -75.813,
    "utc": "-05:00"
  },
  {
    "city": "Cereté",
    "country": "Colombia",
    "lat": 8.885,
    "lon": -75.79,
    "utc": "-05:00"
  },
  {
    "city": "Sahagún",
    "country": "Colombia",
    "lat": 8.946,
    "lon": -75.439,
    "utc": "-05:00"
  },
  {
    "city": "Planeta Rica",
    "country": "Colombia",
    "lat": 8.411,
    "lon": -75.586,
    "utc": "-05:00"
  },
  {
    "city": "Montelíbano",
    "country": "Colombia",
    "lat": 7.98,
    "lon": -75.422,
    "utc": "-05:00"
  },
  {
    "city": "Tierralta",
    "country": "Colombia",
    "lat": 8.174,
    "lon": -76.059,
    "utc": "-05:00"
  },
  {
    "city": "Magangué",
    "country": "Colombia",
    "lat": 9.242,
    "lon": -74.753,
    "utc": "-05:00"
  },
  {
    "city": "Mompox",
    "country": "Colombia",
    "lat": 9.241,
    "lon": -74.426,
    "utc": "-05:00"
  },
  {
    "city": "Turbaco",
    "country": "Colombia",
    "lat": 10.329,
    "lon": -75.411,
    "utc": "-05:00"
  },
  {
    "city": "El Carmen de Bolívar",
    "country": "Colombia",
    "lat": 9.717,
    "lon": -75.122,
    "utc": "-05:00"
  },
  {
    "city": "Arjona",
    "country": "Colombia",
    "lat": 10.258,
    "lon": -75.344,
    "utc": "-05:00"
  },
  {
    "city": "San Gil",
    "country": "Colombia",
    "lat": 6.554,
    "lon": -73.136,
    "utc": "-05:00"
  },
  {
    "city": "Barbosa",
    "country": "Colombia",
    "lat": 5.931,
    "lon": -73.615,
    "utc": "-05:00"
  },
  {
    "city": "Socorro",
    "country": "Colombia",
    "lat": 6.468,
    "lon": -73.261,
    "utc": "-05:00"
  },
  {
    "city": "Málaga",
    "country": "Colombia",
    "lat": 6.699,
    "lon": -72.732,
    "utc": "-05:00"
  },
  {
    "city": "Barrancabermeja",
    "country": "Colombia",
    "lat": 7.065,
    "lon": -73.854,
    "utc": "-05:00"
  },
  {
    "city": "Sabana de Torres",
    "country": "Colombia",
    "lat": 7.392,
    "lon": -73.496,
    "utc": "-05:00"
  },
  {
    "city": "Puerto Wilches",
    "country": "Colombia",
    "lat": 7.348,
    "lon": -73.896,
    "utc": "-05:00"
  },
  {
    "city": "New York",
    "country": "United States",
    "lat": 40.7128,
    "lon": -74.006,
    "utc": "-05:00"
  },
  {
    "city": "Los Angeles",
    "country": "United States",
    "lat": 34.0522,
    "lon": -118.2437,
    "utc": "-08:00"
  },
  {
    "city": "Chicago",
    "country": "United States",
    "lat": 41.8781,
    "lon": -87.6298,
    "utc": "-06:00"
  },
  {
    "city": "Houston",
    "country": "United States",
    "lat": 29.7604,
    "lon": -95.3698,
    "utc": "-06:00"
  },
  {
    "city": "Phoenix",
    "country": "United States",
    "lat": 33.4484,
    "lon": -112.074,
    "utc": "-07:00"
  },
  {
    "city": "Philadelphia",
    "country": "United States",
    "lat": 39.9526,
    "lon": -75.1652,
    "utc": "-05:00"
  },
  {
    "city": "San Antonio",
    "country": "United States",
    "lat": 29.4241,
    "lon": -98.4936,
    "utc": "-06:00"
  },
  {
    "city": "San Diego",
    "country": "United States",
    "lat": 32.7157,
    "lon": -117.1611,
    "utc": "-08:00"
  },
  {
    "city": "Dallas",
    "country": "United States",
    "lat": 32.7767,
    "lon": -96.797,
    "utc": "-06:00"
  },
  {
    "city": "San Jose",
    "country": "United States",
    "lat": 37.3382,
    "lon": -121.8863,
    "utc": "-08:00"
  },
  {
    "city": "Austin",
    "country": "United States",
    "lat": 30.2672,
    "lon": -97.7431,
    "utc": "-06:00"
  },
  {
    "city": "Jacksonville",
    "country": "United States",
    "lat": 30.3322,
    "lon": -81.6557,
    "utc": "-05:00"
  },
  {
    "city": "Fort Worth",
    "country": "United States",
    "lat": 32.7555,
    "lon": -97.3308,
    "utc": "-06:00"
  },
  {
    "city": "Columbus",
    "country": "United States",
    "lat": 39.9612,
    "lon": -82.9988,
    "utc": "-05:00"
  },
  {
    "city": "Charlotte",
    "country": "United States",
    "lat": 35.2271,
    "lon": -80.8431,
    "utc": "-05:00"
  },
  {
    "city": "San Francisco",
    "country": "United States",
    "lat": 37.7749,
    "lon": -122.4194,
    "utc": "-08:00"
  },
  {
    "city": "Indianapolis",
    "country": "United States",
    "lat": 39.7684,
    "lon": -86.1581,
    "utc": "-05:00"
  },
  {
    "city": "Seattle",
    "country": "United States",
    "lat": 47.6062,
    "lon": -122.3321,
    "utc": "-08:00"
  },
  {
    "city": "Denver",
    "country": "United States",
    "lat": 39.7392,
    "lon": -104.9903,
    "utc": "-07:00"
  },
  {
    "city": "Washington",
    "country": "United States",
    "lat": 38.9072,
    "lon": -77.0369,
    "utc": "-05:00"
  },
  {
    "city": "Boston",
    "country": "United States",
    "lat": 42.3601,
    "lon": -71.0589,
    "utc": "-05:00"
  },
  {
    "city": "El Paso",
    "country": "United States",
    "lat": 31.7619,
    "lon": -106.485,
    "utc": "-07:00"
  },
  {
    "city": "Nashville",
    "country": "United States",
    "lat": 36.1627,
    "lon": -86.7816,
    "utc": "-06:00"
  },
  {
    "city": "Detroit",
    "country": "United States",
    "lat": 42.3314,
    "lon": -83.0458,
    "utc": "-05:00"
  },
  {
    "city": "Oklahoma City",
    "country": "United States",
    "lat": 35.4676,
    "lon": -97.5164,
    "utc": "-06:00"
  },
  {
    "city": "Portland",
    "country": "United States",
    "lat": 45.5152,
    "lon": -122.6784,
    "utc": "-08:00"
  },
  {
    "city": "Las Vegas",
    "country": "United States",
    "lat": 36.1699,
    "lon": -115.1398,
    "utc": "-08:00"
  },
  {
    "city": "Memphis",
    "country": "United States",
    "lat": 35.1495,
    "lon": -90.049,
    "utc": "-06:00"
  },
  {
    "city": "Louisville",
    "country": "United States",
    "lat": 38.2527,
    "lon": -85.7585,
    "utc": "-05:00"
  },
  {
    "city": "Baltimore",
    "country": "United States",
    "lat": 39.2904,
    "lon": -76.6122,
    "utc": "-05:00"
  },
  {
    "city": "Milwaukee",
    "country": "United States",
    "lat": 43.0389,
    "lon": -87.9065,
    "utc": "-06:00"
  },
  {
    "city": "Albuquerque",
    "country": "United States",
    "lat": 35.0844,
    "lon": -106.6504,
    "utc": "-07:00"
  },
  {
    "city": "Tucson",
    "country": "United States",
    "lat": 32.2226,
    "lon": -110.9747,
    "utc": "-07:00"
  },
  {
    "city": "Fresno",
    "country": "United States",
    "lat": 36.7378,
    "lon": -119.7871,
    "utc": "-08:00"
  },
  {
    "city": "Mesa",
    "country": "United States",
    "lat": 33.4152,
    "lon": -111.8315,
    "utc": "-07:00"
  },
  {
    "city": "Sacramento",
    "country": "United States",
    "lat": 38.5816,
    "lon": -121.4944,
    "utc": "-08:00"
  },
  {
    "city": "Atlanta",
    "country": "United States",
    "lat": 33.749,
    "lon": -84.388,
    "utc": "-05:00"
  },
  {
    "city": "Kansas City",
    "country": "United States",
    "lat": 39.0997,
    "lon": -94.5786,
    "utc": "-06:00"
  },
  {
    "city": "Colorado Springs",
    "country": "United States",
    "lat": 38.8339,
    "lon": -104.8214,
    "utc": "-07:00"
  },
  {
    "city": "Miami",
    "country": "United States",
    "lat": 25.7617,
    "lon": -80.1918,
    "utc": "-05:00"
  },
  {
    "city": "Raleigh",
    "country": "United States",
    "lat": 35.7796,
    "lon": -78.6382,
    "utc": "-05:00"
  },
  {
    "city": "Omaha",
    "country": "United States",
    "lat": 41.2565,
    "lon": -95.9345,
    "utc": "-06:00"
  },
  {
    "city": "Long Beach",
    "country": "United States",
    "lat": 33.7701,
    "lon": -118.1937,
    "utc": "-08:00"
  },
  {
    "city": "Virginia Beach",
    "country": "United States",
    "lat": 36.8529,
    "lon": -75.978,
    "utc": "-05:00"
  },
  {
    "city": "Oakland",
    "country": "United States",
    "lat": 37.8044,
    "lon": -122.2711,
    "utc": "-08:00"
  },
  {
    "city": "Minneapolis",
    "country": "United States",
    "lat": 44.9778,
    "lon": -93.265,
    "utc": "-06:00"
  },
  {
    "city": "Tulsa",
    "country": "United States",
    "lat": 36.154,
    "lon": -95.9928,
    "utc": "-06:00"
  },
  {
    "city": "Arlington",
    "country": "United States",
    "lat": 32.7357,
    "lon": -97.1081,
    "utc": "-06:00"
  },
  {
    "city": "Tampa",
    "country": "United States",
    "lat": 27.9506,
    "lon": -82.4572,
    "utc": "-05:00"
  },
  {
    "city": "New Orleans",
    "country": "United States",
    "lat": 29.9511,
    "lon": -90.0715,
    "utc": "-06:00"
  },
  {
    "city": "Wichita",
    "country": "United States",
    "lat": 37.6872,
    "lon": -97.3301,
    "utc": "-06:00"
  },
  {
    "city": "Cleveland",
    "country": "United States",
    "lat": 41.4993,
    "lon": -81.6944,
    "utc": "-05:00"
  },
  {
    "city": "Bakersfield",
    "country": "United States",
    "lat": 35.3733,
    "lon": -119.0187,
    "utc": "-08:00"
  },
  {
    "city": "Aurora",
    "country": "United States",
    "lat": 39.7294,
    "lon": -104.8319,
    "utc": "-07:00"
  },
  {
    "city": "Anaheim",
    "country": "United States",
    "lat": 33.8366,
    "lon": -117.9143,
    "utc": "-08:00"
  },
  {
    "city": "Honolulu",
    "country": "United States",
    "lat": 21.3069,
    "lon": -157.8583,
    "utc": "-10:00"
  },
  {
    "city": "Santa Ana",
    "country": "United States",
    "lat": 33.7455,
    "lon": -117.8677,
    "utc": "-08:00"
  },
  {
    "city": "Riverside",
    "country": "United States",
    "lat": 33.9806,
    "lon": -117.3755,
    "utc": "-08:00"
  },
  {
    "city": "Corpus Christi",
    "country": "United States",
    "lat": 27.8006,
    "lon": -97.3964,
    "utc": "-06:00"
  },
  {
    "city": "Lexington",
    "country": "United States",
    "lat": 38.0406,
    "lon": -84.5037,
    "utc": "-05:00"
  },
  {
    "city": "Stockton",
    "country": "United States",
    "lat": 37.9577,
    "lon": -121.2908,
    "utc": "-08:00"
  },
  {
    "city": "Henderson",
    "country": "United States",
    "lat": 36.0395,
    "lon": -114.9817,
    "utc": "-08:00"
  },
  {
    "city": "Saint Paul",
    "country": "United States",
    "lat": 44.9537,
    "lon": -93.09,
    "utc": "-06:00"
  },
  {
    "city": "St. Louis",
    "country": "United States",
    "lat": 38.627,
    "lon": -90.1994,
    "utc": "-06:00"
  },
  {
    "city": "Cincinnati",
    "country": "United States",
    "lat": 39.1031,
    "lon": -84.512,
    "utc": "-05:00"
  },
  {
    "city": "Pittsburgh",
    "country": "United States",
    "lat": 40.4406,
    "lon": -79.9959,
    "utc": "-05:00"
  },
  {
    "city": "Greensboro",
    "country": "United States",
    "lat": 36.0726,
    "lon": -79.792,
    "utc": "-05:00"
  },
  {
    "city": "Anchorage",
    "country": "United States",
    "lat": 61.2181,
    "lon": -149.9003,
    "utc": "-09:00"
  },
  {
    "city": "Plano",
    "country": "United States",
    "lat": 33.0198,
    "lon": -96.6989,
    "utc": "-06:00"
  },
  {
    "city": "Lincoln",
    "country": "United States",
    "lat": 40.8136,
    "lon": -96.7026,
    "utc": "-06:00"
  },
  {
    "city": "Orlando",
    "country": "United States",
    "lat": 28.5383,
    "lon": -81.3792,
    "utc": "-05:00"
  },
  {
    "city": "Irvine",
    "country": "United States",
    "lat": 33.6846,
    "lon": -117.8265,
    "utc": "-08:00"
  },
  {
    "city": "Newark",
    "country": "United States",
    "lat": 40.7357,
    "lon": -74.1724,
    "utc": "-05:00"
  },
  {
    "city": "Toledo",
    "country": "United States",
    "lat": 41.6528,
    "lon": -83.5379,
    "utc": "-05:00"
  },
  {
    "city": "Durham",
    "country": "United States",
    "lat": 35.994,
    "lon": -78.8986,
    "utc": "-05:00"
  },
  {
    "city": "Chula Vista",
    "country": "United States",
    "lat": 32.6401,
    "lon": -117.0842,
    "utc": "-08:00"
  },
  {
    "city": "Fort Wayne",
    "country": "United States",
    "lat": 41.0793,
    "lon": -85.1394,
    "utc": "-05:00"
  },
  {
    "city": "Jersey City",
    "country": "United States",
    "lat": 40.7178,
    "lon": -74.0431,
    "utc": "-05:00"
  },
  {
    "city": "St. Petersburg",
    "country": "United States",
    "lat": 27.7676,
    "lon": -82.6403,
    "utc": "-05:00"
  },
  {
    "city": "Laredo",
    "country": "United States",
    "lat": 27.5306,
    "lon": -99.4803,
    "utc": "-06:00"
  },
  {
    "city": "Madison",
    "country": "United States",
    "lat": 43.0731,
    "lon": -89.4012,
    "utc": "-06:00"
  },
  {
    "city": "Chandler",
    "country": "United States",
    "lat": 33.3062,
    "lon": -111.8413,
    "utc": "-07:00"
  },
  {
    "city": "Buffalo",
    "country": "United States",
    "lat": 42.8864,
    "lon": -78.8784,
    "utc": "-05:00"
  },
  {
    "city": "Lubbock",
    "country": "United States",
    "lat": 33.5779,
    "lon": -101.8552,
    "utc": "-06:00"
  },
  {
    "city": "Scottsdale",
    "country": "United States",
    "lat": 33.4942,
    "lon": -111.9261,
    "utc": "-07:00"
  },
  {
    "city": "Reno",
    "country": "United States",
    "lat": 39.5296,
    "lon": -119.8138,
    "utc": "-08:00"
  },
  {
    "city": "Glendale",
    "country": "United States",
    "lat": 33.5387,
    "lon": -112.186,
    "utc": "-07:00"
  },
  {
    "city": "Gilbert",
    "country": "United States",
    "lat": 33.3528,
    "lon": -111.789,
    "utc": "-07:00"
  },
  {
    "city": "Winston-Salem",
    "country": "United States",
    "lat": 36.0999,
    "lon": -80.2442,
    "utc": "-05:00"
  },
  {
    "city": "North Las Vegas",
    "country": "United States",
    "lat": 36.1989,
    "lon": -115.1175,
    "utc": "-08:00"
  },
  {
    "city": "Norfolk",
    "country": "United States",
    "lat": 36.8508,
    "lon": -76.2859,
    "utc": "-05:00"
  },
  {
    "city": "Chesapeake",
    "country": "United States",
    "lat": 36.7682,
    "lon": -76.2875,
    "utc": "-05:00"
  },
  {
    "city": "Garland",
    "country": "United States",
    "lat": 32.9126,
    "lon": -96.6389,
    "utc": "-06:00"
  },
  {
    "city": "Irving",
    "country": "United States",
    "lat": 32.814,
    "lon": -96.9489,
    "utc": "-06:00"
  },
  {
    "city": "Hialeah",
    "country": "United States",
    "lat": 25.8576,
    "lon": -80.2781,
    "utc": "-05:00"
  },
  {
    "city": "Fremont",
    "country": "United States",
    "lat": 37.5483,
    "lon": -121.9886,
    "utc": "-08:00"
  },
  {
    "city": "Boise",
    "country": "United States",
    "lat": 43.615,
    "lon": -116.2023,
    "utc": "-07:00"
  },
  {
    "city": "Richmond",
    "country": "United States",
    "lat": 37.5407,
    "lon": -77.436,
    "utc": "-05:00"
  },
  {
    "city": "Baton Rouge",
    "country": "United States",
    "lat": 30.4515,
    "lon": -91.1871,
    "utc": "-06:00"
  },
  {
    "city": "Spokane",
    "country": "United States",
    "lat": 47.6588,
    "lon": -117.426,
    "utc": "-08:00"
  },
  {
    "city": "Des Moines",
    "country": "United States",
    "lat": 41.5868,
    "lon": -93.625,
    "utc": "-06:00"
  },
  {
    "city": "Tacoma",
    "country": "United States",
    "lat": 47.2529,
    "lon": -122.4443,
    "utc": "-08:00"
  },
  {
    "city": "San Bernardino",
    "country": "United States",
    "lat": 34.1083,
    "lon": -117.2898,
    "utc": "-08:00"
  },
  {
    "city": "Modesto",
    "country": "United States",
    "lat": 37.6391,
    "lon": -120.9969,
    "utc": "-08:00"
  },
  {
    "city": "Fontana",
    "country": "United States",
    "lat": 34.0922,
    "lon": -117.435,
    "utc": "-08:00"
  },
  {
    "city": "Santa Clarita",
    "country": "United States",
    "lat": 34.3917,
    "lon": -118.5426,
    "utc": "-08:00"
  },
  {
    "city": "Birmingham",
    "country": "United States",
    "lat": 33.5186,
    "lon": -86.8104,
    "utc": "-06:00"
  },
  {
    "city": "Oxnard",
    "country": "United States",
    "lat": 34.1975,
    "lon": -119.1771,
    "utc": "-08:00"
  },
  {
    "city": "Fayetteville",
    "country": "United States",
    "lat": 35.0527,
    "lon": -78.8784,
    "utc": "-05:00"
  },
  {
    "city": "Rochester",
    "country": "United States",
    "lat": 43.1566,
    "lon": -77.6088,
    "utc": "-05:00"
  },
  {
    "city": "Moreno Valley",
    "country": "United States",
    "lat": 33.9425,
    "lon": -117.2297,
    "utc": "-08:00"
  },
  {
    "city": "Salt Lake City",
    "country": "United States",
    "lat": 40.7608,
    "lon": -111.891,
    "utc": "-07:00"
  },
  {
    "city": "Yonkers",
    "country": "United States",
    "lat": 40.9312,
    "lon": -73.8988,
    "utc": "-05:00"
  },
  {
    "city": "Akron",
    "country": "United States",
    "lat": 41.0814,
    "lon": -81.519,
    "utc": "-05:00"
  },
  {
    "city": "Huntington Beach",
    "country": "United States",
    "lat": 33.6603,
    "lon": -117.9992,
    "utc": "-08:00"
  },
  {
    "city": "Little Rock",
    "country": "United States",
    "lat": 34.7465,
    "lon": -92.2896,
    "utc": "-06:00"
  },
  {
    "city": "Amarillo",
    "country": "United States",
    "lat": 35.2219,
    "lon": -101.8313,
    "utc": "-06:00"
  },
  {
    "city": "Augusta",
    "country": "United States",
    "lat": 33.4735,
    "lon": -82.0105,
    "utc": "-05:00"
  },
  {
    "city": "Mobile",
    "country": "United States",
    "lat": 30.6954,
    "lon": -88.0399,
    "utc": "-06:00"
  },
  {
    "city": "Grand Rapids",
    "country": "United States",
    "lat": 42.9634,
    "lon": -85.6681,
    "utc": "-05:00"
  },
  {
    "city": "Shreveport",
    "country": "United States",
    "lat": 32.5252,
    "lon": -93.7502,
    "utc": "-06:00"
  },
  {
    "city": "Columbus GA",
    "country": "United States",
    "lat": 32.4609,
    "lon": -84.9877,
    "utc": "-05:00"
  },
  {
    "city": "Tallahassee",
    "country": "United States",
    "lat": 30.4383,
    "lon": -84.2807,
    "utc": "-05:00"
  },
  {
    "city": "Huntsville",
    "country": "United States",
    "lat": 34.7304,
    "lon": -86.5861,
    "utc": "-06:00"
  },
  {
    "city": "Knoxville",
    "country": "United States",
    "lat": 35.9606,
    "lon": -83.9207,
    "utc": "-05:00"
  },
  {
    "city": "Worcester",
    "country": "United States",
    "lat": 42.2626,
    "lon": -71.8023,
    "utc": "-05:00"
  },
  {
    "city": "Newport News",
    "country": "United States",
    "lat": 37.0871,
    "lon": -76.473,
    "utc": "-05:00"
  },
  {
    "city": "Brownsville",
    "country": "United States",
    "lat": 25.9017,
    "lon": -97.4975,
    "utc": "-06:00"
  },
  {
    "city": "Overland Park",
    "country": "United States",
    "lat": 38.9822,
    "lon": -94.6708,
    "utc": "-06:00"
  },
  {
    "city": "Santa Rosa",
    "country": "United States",
    "lat": 38.4404,
    "lon": -122.7141,
    "utc": "-08:00"
  },
  {
    "city": "Providence",
    "country": "United States",
    "lat": 41.824,
    "lon": -71.4128,
    "utc": "-05:00"
  },
  {
    "city": "Garden Grove",
    "country": "United States",
    "lat": 33.7739,
    "lon": -117.9414,
    "utc": "-08:00"
  },
  {
    "city": "Chattanooga",
    "country": "United States",
    "lat": 35.0456,
    "lon": -85.3097,
    "utc": "-05:00"
  },
  {
    "city": "Oceanside",
    "country": "United States",
    "lat": 33.1959,
    "lon": -117.3795,
    "utc": "-08:00"
  },
  {
    "city": "Jackson",
    "country": "United States",
    "lat": 32.2988,
    "lon": -90.1848,
    "utc": "-06:00"
  },
  {
    "city": "Fort Lauderdale",
    "country": "United States",
    "lat": 26.1224,
    "lon": -80.1373,
    "utc": "-05:00"
  },
  {
    "city": "Santa Rosa CA",
    "country": "United States",
    "lat": 38.4405,
    "lon": -122.7144,
    "utc": "-08:00"
  },
  {
    "city": "Tempe",
    "country": "United States",
    "lat": 33.4255,
    "lon": -111.94,
    "utc": "-07:00"
  },
  {
    "city": "McKinney",
    "country": "United States",
    "lat": 33.1972,
    "lon": -96.6398,
    "utc": "-06:00"
  },
  {
    "city": "Frisco",
    "country": "United States",
    "lat": 33.1507,
    "lon": -96.8236,
    "utc": "-06:00"
  },
  {
    "city": "Cape Coral",
    "country": "United States",
    "lat": 26.5629,
    "lon": -81.9495,
    "utc": "-05:00"
  },
  {
    "city": "Vancouver WA",
    "country": "United States",
    "lat": 45.6387,
    "lon": -122.6615,
    "utc": "-08:00"
  },
  {
    "city": "Sioux Falls",
    "country": "United States",
    "lat": 43.5446,
    "lon": -96.7311,
    "utc": "-06:00"
  },
  {
    "city": "Peoria",
    "country": "United States",
    "lat": 40.6936,
    "lon": -89.589,
    "utc": "-06:00"
  },
  {
    "city": "Ontario",
    "country": "United States",
    "lat": 34.0633,
    "lon": -117.6509,
    "utc": "-08:00"
  },
  {
    "city": "Elk Grove",
    "country": "United States",
    "lat": 38.4088,
    "lon": -121.3716,
    "utc": "-08:00"
  },
  {
    "city": "Salem",
    "country": "United States",
    "lat": 44.9429,
    "lon": -123.0351,
    "utc": "-08:00"
  },
  {
    "city": "Lancaster",
    "country": "United States",
    "lat": 34.6868,
    "lon": -118.1542,
    "utc": "-08:00"
  },
  {
    "city": "Eugene",
    "country": "United States",
    "lat": 44.0521,
    "lon": -123.0868,
    "utc": "-08:00"
  },
  {
    "city": "Corona",
    "country": "United States",
    "lat": 33.8753,
    "lon": -117.5664,
    "utc": "-08:00"
  },
  {
    "city": "Toronto",
    "country": "Canada",
    "lat": 43.6532,
    "lon": -79.3832,
    "utc": "-05:00"
  },
  {
    "city": "Montreal",
    "country": "Canada",
    "lat": 45.5017,
    "lon": -73.5673,
    "utc": "-05:00"
  },
  {
    "city": "Vancouver",
    "country": "Canada",
    "lat": 49.2827,
    "lon": -123.1207,
    "utc": "-08:00"
  },
  {
    "city": "Calgary",
    "country": "Canada",
    "lat": 51.0447,
    "lon": -114.0719,
    "utc": "-07:00"
  },
  {
    "city": "Edmonton",
    "country": "Canada",
    "lat": 53.5461,
    "lon": -113.4938,
    "utc": "-07:00"
  },
  {
    "city": "Ottawa",
    "country": "Canada",
    "lat": 45.4215,
    "lon": -75.6972,
    "utc": "-05:00"
  },
  {
    "city": "Winnipeg",
    "country": "Canada",
    "lat": 49.8951,
    "lon": -97.1384,
    "utc": "-06:00"
  },
  {
    "city": "Quebec City",
    "country": "Canada",
    "lat": 46.8139,
    "lon": -71.208,
    "utc": "-05:00"
  },
  {
    "city": "Hamilton",
    "country": "Canada",
    "lat": 43.2557,
    "lon": -79.8711,
    "utc": "-05:00"
  },
  {
    "city": "Kitchener",
    "country": "Canada",
    "lat": 43.4516,
    "lon": -80.4925,
    "utc": "-05:00"
  },
  {
    "city": "London",
    "country": "Canada",
    "lat": 42.9849,
    "lon": -81.2453,
    "utc": "-05:00"
  },
  {
    "city": "Halifax",
    "country": "Canada",
    "lat": 44.6488,
    "lon": -63.5752,
    "utc": "-04:00"
  },
  {
    "city": "Victoria",
    "country": "Canada",
    "lat": 48.4284,
    "lon": -123.3656,
    "utc": "-08:00"
  },
  {
    "city": "Saskatoon",
    "country": "Canada",
    "lat": 52.1579,
    "lon": -106.6702,
    "utc": "-06:00"
  },
  {
    "city": "Regina",
    "country": "Canada",
    "lat": 50.4452,
    "lon": -104.6189,
    "utc": "-06:00"
  },
  {
    "city": "St. John's",
    "country": "Canada",
    "lat": 47.5615,
    "lon": -52.7126,
    "utc": "-03:30"
  },
  {
    "city": "Moncton",
    "country": "Canada",
    "lat": 46.0878,
    "lon": -64.7782,
    "utc": "-04:00"
  },
  {
    "city": "Kelowna",
    "country": "Canada",
    "lat": 49.888,
    "lon": -119.496,
    "utc": "-08:00"
  },
  {
    "city": "Sherbrooke",
    "country": "Canada",
    "lat": 45.4042,
    "lon": -71.8929,
    "utc": "-05:00"
  },
  {
    "city": "Trois-Rivières",
    "country": "Canada",
    "lat": 46.343,
    "lon": -72.543,
    "utc": "-05:00"
  },
  {
    "city": "Mexico City",
    "country": "Mexico",
    "lat": 19.4326,
    "lon": -99.1332,
    "utc": "-06:00"
  },
  {
    "city": "Guadalajara",
    "country": "Mexico",
    "lat": 20.6597,
    "lon": -103.3496,
    "utc": "-06:00"
  },
  {
    "city": "Monterrey",
    "country": "Mexico",
    "lat": 25.6866,
    "lon": -100.3161,
    "utc": "-06:00"
  },
  {
    "city": "Puebla",
    "country": "Mexico",
    "lat": 19.0414,
    "lon": -98.2063,
    "utc": "-06:00"
  },
  {
    "city": "Tijuana",
    "country": "Mexico",
    "lat": 32.5149,
    "lon": -117.0382,
    "utc": "-08:00"
  },
  {
    "city": "León",
    "country": "Mexico",
    "lat": 21.122,
    "lon": -101.684,
    "utc": "-06:00"
  },
  {
    "city": "Juárez",
    "country": "Mexico",
    "lat": 31.6904,
    "lon": -106.4245,
    "utc": "-07:00"
  },
  {
    "city": "Mérida",
    "country": "Mexico",
    "lat": 20.9674,
    "lon": -89.5926,
    "utc": "-06:00"
  },
  {
    "city": "Querétaro",
    "country": "Mexico",
    "lat": 20.5888,
    "lon": -100.3899,
    "utc": "-06:00"
  },
  {
    "city": "San Luis Potosí",
    "country": "Mexico",
    "lat": 22.1565,
    "lon": -100.9855,
    "utc": "-06:00"
  },
  {
    "city": "Aguascalientes",
    "country": "Mexico",
    "lat": 21.8853,
    "lon": -102.2916,
    "utc": "-06:00"
  },
  {
    "city": "Mexicali",
    "country": "Mexico",
    "lat": 32.6245,
    "lon": -115.4523,
    "utc": "-08:00"
  },
  {
    "city": "Chihuahua",
    "country": "Mexico",
    "lat": 28.6329,
    "lon": -106.0691,
    "utc": "-07:00"
  },
  {
    "city": "Cancún",
    "country": "Mexico",
    "lat": 21.1619,
    "lon": -86.8515,
    "utc": "-05:00"
  },
  {
    "city": "Toluca",
    "country": "Mexico",
    "lat": 19.2826,
    "lon": -99.6557,
    "utc": "-06:00"
  },
  {
    "city": "Culiacán",
    "country": "Mexico",
    "lat": 24.8091,
    "lon": -107.394,
    "utc": "-07:00"
  },
  {
    "city": "Hermosillo",
    "country": "Mexico",
    "lat": 29.0729,
    "lon": -110.9559,
    "utc": "-07:00"
  },
  {
    "city": "Veracruz",
    "country": "Mexico",
    "lat": 19.1738,
    "lon": -96.1342,
    "utc": "-06:00"
  },
  {
    "city": "Oaxaca",
    "country": "Mexico",
    "lat": 17.0732,
    "lon": -96.7266,
    "utc": "-06:00"
  },
  {
    "city": "Morelia",
    "country": "Mexico",
    "lat": 19.7008,
    "lon": -101.1844,
    "utc": "-06:00"
  },
  {
    "city": "Tuxtla Gutiérrez",
    "country": "Mexico",
    "lat": 16.7516,
    "lon": -93.1167,
    "utc": "-06:00"
  },
  {
    "city": "Saltillo",
    "country": "Mexico",
    "lat": 25.4383,
    "lon": -100.9737,
    "utc": "-06:00"
  },
  {
    "city": "Durango",
    "country": "Mexico",
    "lat": 24.0277,
    "lon": -104.6532,
    "utc": "-06:00"
  },
  {
    "city": "Mazatlán",
    "country": "Mexico",
    "lat": 23.2494,
    "lon": -106.4111,
    "utc": "-07:00"
  },
  {
    "city": "Acapulco",
    "country": "Mexico",
    "lat": 16.8531,
    "lon": -99.8237,
    "utc": "-06:00"
  },
  {
    "city": "Tampico",
    "country": "Mexico",
    "lat": 22.2331,
    "lon": -97.8611,
    "utc": "-06:00"
  },
  {
    "city": "Villahermosa",
    "country": "Mexico",
    "lat": 17.9892,
    "lon": -92.9475,
    "utc": "-06:00"
  },
  {
    "city": "Reynosa",
    "country": "Mexico",
    "lat": 26.0922,
    "lon": -98.277,
    "utc": "-06:00"
  },
  {
    "city": "Celaya",
    "country": "Mexico",
    "lat": 20.521,
    "lon": -100.812,
    "utc": "-06:00"
  },
  {
    "city": "Cuernavaca",
    "country": "Mexico",
    "lat": 18.9242,
    "lon": -99.2216,
    "utc": "-06:00"
  },
  {
    "city": "Havana",
    "country": "Cuba",
    "lat": 23.1136,
    "lon": -82.3666,
    "utc": "-05:00"
  },
  {
    "city": "Santiago de Cuba",
    "country": "Cuba",
    "lat": 20.0208,
    "lon": -75.8267,
    "utc": "-05:00"
  },
  {
    "city": "Camagüey",
    "country": "Cuba",
    "lat": 21.3808,
    "lon": -77.9169,
    "utc": "-05:00"
  },
  {
    "city": "Holguín",
    "country": "Cuba",
    "lat": 20.8872,
    "lon": -76.2631,
    "utc": "-05:00"
  },
  {
    "city": "Santa Clara",
    "country": "Cuba",
    "lat": 22.4069,
    "lon": -79.9647,
    "utc": "-05:00"
  },
  {
    "city": "Santo Domingo",
    "country": "Dominican Republic",
    "lat": 18.4861,
    "lon": -69.9312,
    "utc": "-04:00"
  },
  {
    "city": "Santiago de los Caballeros",
    "country": "Dominican Republic",
    "lat": 19.4517,
    "lon": -70.697,
    "utc": "-04:00"
  },
  {
    "city": "Punta Cana",
    "country": "Dominican Republic",
    "lat": 18.5601,
    "lon": -68.3725,
    "utc": "-04:00"
  },
  {
    "city": "San Pedro de Macorís",
    "country": "Dominican Republic",
    "lat": 18.4539,
    "lon": -69.3086,
    "utc": "-04:00"
  },
  {
    "city": "La Romana",
    "country": "Dominican Republic",
    "lat": 18.4273,
    "lon": -68.9728,
    "utc": "-04:00"
  },
  {
    "city": "San Juan",
    "country": "Puerto Rico",
    "lat": 18.4655,
    "lon": -66.1057,
    "utc": "-04:00"
  },
  {
    "city": "Ponce",
    "country": "Puerto Rico",
    "lat": 18.0111,
    "lon": -66.6141,
    "utc": "-04:00"
  },
  {
    "city": "Mayagüez",
    "country": "Puerto Rico",
    "lat": 18.2011,
    "lon": -67.1396,
    "utc": "-04:00"
  },
  {
    "city": "Arecibo",
    "country": "Puerto Rico",
    "lat": 18.4724,
    "lon": -66.7157,
    "utc": "-04:00"
  },
  {
    "city": "Bayamón",
    "country": "Puerto Rico",
    "lat": 18.3894,
    "lon": -66.1653,
    "utc": "-04:00"
  },
  {
    "city": "Kingston",
    "country": "Jamaica",
    "lat": 17.9712,
    "lon": -76.7936,
    "utc": "-05:00"
  },
  {
    "city": "Montego Bay",
    "country": "Jamaica",
    "lat": 18.4762,
    "lon": -77.8939,
    "utc": "-05:00"
  },
  {
    "city": "Spanish Town",
    "country": "Jamaica",
    "lat": 17.991,
    "lon": -76.9572,
    "utc": "-05:00"
  },
  {
    "city": "Port-au-Prince",
    "country": "Haiti",
    "lat": 18.5944,
    "lon": -72.3074,
    "utc": "-05:00"
  },
  {
    "city": "Cap-Haïtien",
    "country": "Haiti",
    "lat": 19.7594,
    "lon": -72.1982,
    "utc": "-05:00"
  },
  {
    "city": "Nassau",
    "country": "Bahamas",
    "lat": 25.0443,
    "lon": -77.3504,
    "utc": "-05:00"
  },
  {
    "city": "Freeport",
    "country": "Bahamas",
    "lat": 26.5333,
    "lon": -78.7,
    "utc": "-05:00"
  },
  {
    "city": "Bridgetown",
    "country": "Barbados",
    "lat": 13.1132,
    "lon": -59.5988,
    "utc": "-04:00"
  },
  {
    "city": "Belmopan",
    "country": "Belize",
    "lat": 17.2514,
    "lon": -88.759,
    "utc": "-06:00"
  },
  {
    "city": "Belize City",
    "country": "Belize",
    "lat": 17.5046,
    "lon": -88.1962,
    "utc": "-06:00"
  },
  {
    "city": "San Pedro",
    "country": "Belize",
    "lat": 17.9214,
    "lon": -87.9611,
    "utc": "-06:00"
  },
  {
    "city": "Guatemala City",
    "country": "Guatemala",
    "lat": 14.6349,
    "lon": -90.5069,
    "utc": "-06:00"
  },
  {
    "city": "Quetzaltenango",
    "country": "Guatemala",
    "lat": 14.8347,
    "lon": -91.518,
    "utc": "-06:00"
  },
  {
    "city": "Escuintla",
    "country": "Guatemala",
    "lat": 14.305,
    "lon": -90.785,
    "utc": "-06:00"
  },
  {
    "city": "Antigua Guatemala",
    "country": "Guatemala",
    "lat": 14.5597,
    "lon": -90.7343,
    "utc": "-06:00"
  },
  {
    "city": "San Salvador",
    "country": "El Salvador",
    "lat": 13.6929,
    "lon": -89.2182,
    "utc": "-06:00"
  },
  {
    "city": "Santa Ana",
    "country": "El Salvador",
    "lat": 13.9942,
    "lon": -89.5597,
    "utc": "-06:00"
  },
  {
    "city": "San Miguel",
    "country": "El Salvador",
    "lat": 13.4833,
    "lon": -88.1833,
    "utc": "-06:00"
  },
  {
    "city": "Soyapango",
    "country": "El Salvador",
    "lat": 13.7102,
    "lon": -89.1399,
    "utc": "-06:00"
  },
  {
    "city": "Tegucigalpa",
    "country": "Honduras",
    "lat": 14.0723,
    "lon": -87.1921,
    "utc": "-06:00"
  },
  {
    "city": "San Pedro Sula",
    "country": "Honduras",
    "lat": 15.5042,
    "lon": -88.025,
    "utc": "-06:00"
  },
  {
    "city": "La Ceiba",
    "country": "Honduras",
    "lat": 15.7703,
    "lon": -86.7919,
    "utc": "-06:00"
  },
  {
    "city": "Choloma",
    "country": "Honduras",
    "lat": 15.6136,
    "lon": -87.953,
    "utc": "-06:00"
  },
  {
    "city": "Managua",
    "country": "Nicaragua",
    "lat": 12.1149,
    "lon": -86.2362,
    "utc": "-06:00"
  },
  {
    "city": "León",
    "country": "Nicaragua",
    "lat": 12.434,
    "lon": -86.878,
    "utc": "-06:00"
  },
  {
    "city": "Granada",
    "country": "Nicaragua",
    "lat": 11.9344,
    "lon": -85.956,
    "utc": "-06:00"
  },
  {
    "city": "Estelí",
    "country": "Nicaragua",
    "lat": 13.0919,
    "lon": -86.3542,
    "utc": "-06:00"
  },
  {
    "city": "San José",
    "country": "Costa Rica",
    "lat": 9.9281,
    "lon": -84.0907,
    "utc": "-06:00"
  },
  {
    "city": "Alajuela",
    "country": "Costa Rica",
    "lat": 10.0163,
    "lon": -84.2116,
    "utc": "-06:00"
  },
  {
    "city": "Heredia",
    "country": "Costa Rica",
    "lat": 9.998,
    "lon": -84.1165,
    "utc": "-06:00"
  },
  {
    "city": "Cartago",
    "country": "Costa Rica",
    "lat": 9.8644,
    "lon": -83.9194,
    "utc": "-06:00"
  },
  {
    "city": "Puntarenas",
    "country": "Costa Rica",
    "lat": 9.9763,
    "lon": -84.8384,
    "utc": "-06:00"
  },
  {
    "city": "Limón",
    "country": "Costa Rica",
    "lat": 9.9907,
    "lon": -83.0359,
    "utc": "-06:00"
  },
  {
    "city": "Panama City",
    "country": "Panama",
    "lat": 8.9824,
    "lon": -79.5199,
    "utc": "-05:00"
  },
  {
    "city": "Colón",
    "country": "Panama",
    "lat": 9.3592,
    "lon": -79.9,
    "utc": "-05:00"
  },
  {
    "city": "David",
    "country": "Panama",
    "lat": 8.4333,
    "lon": -82.4333,
    "utc": "-05:00"
  },
  {
    "city": "Santiago de Veraguas",
    "country": "Panama",
    "lat": 8.1,
    "lon": -80.9833,
    "utc": "-05:00"
  },
  {
    "city": "Caracas",
    "country": "Venezuela",
    "lat": 10.4806,
    "lon": -66.9036,
    "utc": "-04:00"
  },
  {
    "city": "Maracaibo",
    "country": "Venezuela",
    "lat": 10.6545,
    "lon": -71.65,
    "utc": "-04:00"
  },
  {
    "city": "Valencia",
    "country": "Venezuela",
    "lat": 10.162,
    "lon": -68.0077,
    "utc": "-04:00"
  },
  {
    "city": "Barquisimeto",
    "country": "Venezuela",
    "lat": 10.0678,
    "lon": -69.3467,
    "utc": "-04:00"
  },
  {
    "city": "Maracay",
    "country": "Venezuela",
    "lat": 10.2469,
    "lon": -67.5958,
    "utc": "-04:00"
  },
  {
    "city": "Ciudad Guayana",
    "country": "Venezuela",
    "lat": 8.3512,
    "lon": -62.641,
    "utc": "-04:00"
  },
  {
    "city": "Maturín",
    "country": "Venezuela",
    "lat": 9.7457,
    "lon": -63.1832,
    "utc": "-04:00"
  },
  {
    "city": "Barcelona",
    "country": "Venezuela",
    "lat": 10.1367,
    "lon": -64.6862,
    "utc": "-04:00"
  },
  {
    "city": "Quito",
    "country": "Ecuador",
    "lat": -0.1807,
    "lon": -78.4678,
    "utc": "-05:00"
  },
  {
    "city": "Guayaquil",
    "country": "Ecuador",
    "lat": -2.1709,
    "lon": -79.9224,
    "utc": "-05:00"
  },
  {
    "city": "Cuenca",
    "country": "Ecuador",
    "lat": -2.9001,
    "lon": -79.0059,
    "utc": "-05:00"
  },
  {
    "city": "Santo Domingo de los Colorados",
    "country": "Ecuador",
    "lat": -0.2521,
    "lon": -79.1719,
    "utc": "-05:00"
  },
  {
    "city": "Machala",
    "country": "Ecuador",
    "lat": -3.2581,
    "lon": -79.9555,
    "utc": "-05:00"
  },
  {
    "city": "Manta",
    "country": "Ecuador",
    "lat": -0.9677,
    "lon": -80.7089,
    "utc": "-05:00"
  },
  {
    "city": "Ambato",
    "country": "Ecuador",
    "lat": -1.2491,
    "lon": -78.6168,
    "utc": "-05:00"
  },
  {
    "city": "Loja",
    "country": "Ecuador",
    "lat": -3.9931,
    "lon": -79.2042,
    "utc": "-05:00"
  },
  {
    "city": "Ibarra",
    "country": "Ecuador",
    "lat": 0.3517,
    "lon": -78.1223,
    "utc": "-05:00"
  },
  {
    "city": "Lima",
    "country": "Peru",
    "lat": -12.0464,
    "lon": -77.0428,
    "utc": "-05:00"
  },
  {
    "city": "Arequipa",
    "country": "Peru",
    "lat": -16.409,
    "lon": -71.5375,
    "utc": "-05:00"
  },
  {
    "city": "Trujillo",
    "country": "Peru",
    "lat": -8.1118,
    "lon": -79.0288,
    "utc": "-05:00"
  },
  {
    "city": "Cusco",
    "country": "Peru",
    "lat": -13.5319,
    "lon": -71.9675,
    "utc": "-05:00"
  },
  {
    "city": "Chiclayo",
    "country": "Peru",
    "lat": -6.7714,
    "lon": -79.8409,
    "utc": "-05:00"
  },
  {
    "city": "Piura",
    "country": "Peru",
    "lat": -5.1945,
    "lon": -80.6328,
    "utc": "-05:00"
  },
  {
    "city": "Iquitos",
    "country": "Peru",
    "lat": -3.7437,
    "lon": -73.2516,
    "utc": "-05:00"
  },
  {
    "city": "Huancayo",
    "country": "Peru",
    "lat": -12.0651,
    "lon": -75.2049,
    "utc": "-05:00"
  },
  {
    "city": "Tacna",
    "country": "Peru",
    "lat": -18.0066,
    "lon": -70.2463,
    "utc": "-05:00"
  },
  {
    "city": "Pucallpa",
    "country": "Peru",
    "lat": -8.3791,
    "lon": -74.5539,
    "utc": "-05:00"
  },
  {
    "city": "La Paz",
    "country": "Bolivia",
    "lat": -16.4897,
    "lon": -68.1193,
    "utc": "-04:00"
  },
  {
    "city": "Santa Cruz de la Sierra",
    "country": "Bolivia",
    "lat": -17.7833,
    "lon": -63.1821,
    "utc": "-04:00"
  },
  {
    "city": "Cochabamba",
    "country": "Bolivia",
    "lat": -17.4139,
    "lon": -66.1653,
    "utc": "-04:00"
  },
  {
    "city": "Sucre",
    "country": "Bolivia",
    "lat": -19.0196,
    "lon": -65.2619,
    "utc": "-04:00"
  },
  {
    "city": "Oruro",
    "country": "Bolivia",
    "lat": -17.9647,
    "lon": -67.106,
    "utc": "-04:00"
  },
  {
    "city": "Tarija",
    "country": "Bolivia",
    "lat": -21.5355,
    "lon": -64.7296,
    "utc": "-04:00"
  },
  {
    "city": "Potosí",
    "country": "Bolivia",
    "lat": -19.5723,
    "lon": -65.755,
    "utc": "-04:00"
  },
  {
    "city": "Trinidad",
    "country": "Bolivia",
    "lat": -14.8333,
    "lon": -64.9,
    "utc": "-04:00"
  },
  {
    "city": "Asunción",
    "country": "Paraguay",
    "lat": -25.2637,
    "lon": -57.5759,
    "utc": "-04:00"
  },
  {
    "city": "Ciudad del Este",
    "country": "Paraguay",
    "lat": -25.5167,
    "lon": -54.6167,
    "utc": "-04:00"
  },
  {
    "city": "Encarnación",
    "country": "Paraguay",
    "lat": -27.3306,
    "lon": -55.8667,
    "utc": "-04:00"
  },
  {
    "city": "San Lorenzo",
    "country": "Paraguay",
    "lat": -25.3397,
    "lon": -57.5088,
    "utc": "-04:00"
  },
  {
    "city": "Montevideo",
    "country": "Uruguay",
    "lat": -34.9011,
    "lon": -56.1645,
    "utc": "-03:00"
  },
  {
    "city": "Salto",
    "country": "Uruguay",
    "lat": -31.3833,
    "lon": -57.9667,
    "utc": "-03:00"
  },
  {
    "city": "Paysandú",
    "country": "Uruguay",
    "lat": -32.3214,
    "lon": -58.0756,
    "utc": "-03:00"
  },
  {
    "city": "Maldonado",
    "country": "Uruguay",
    "lat": -34.9,
    "lon": -54.95,
    "utc": "-03:00"
  },
  {
    "city": "Punta del Este",
    "country": "Uruguay",
    "lat": -34.9683,
    "lon": -54.95,
    "utc": "-03:00"
  },
  {
    "city": "Buenos Aires",
    "country": "Argentina",
    "lat": -34.6037,
    "lon": -58.3816,
    "utc": "-03:00"
  },
  {
    "city": "Córdoba",
    "country": "Argentina",
    "lat": -31.4201,
    "lon": -64.1888,
    "utc": "-03:00"
  },
  {
    "city": "Rosario",
    "country": "Argentina",
    "lat": -32.9442,
    "lon": -60.6505,
    "utc": "-03:00"
  },
  {
    "city": "Mendoza",
    "country": "Argentina",
    "lat": -32.8895,
    "lon": -68.8458,
    "utc": "-03:00"
  },
  {
    "city": "La Plata",
    "country": "Argentina",
    "lat": -34.9214,
    "lon": -57.9544,
    "utc": "-03:00"
  },
  {
    "city": "San Miguel de Tucumán",
    "country": "Argentina",
    "lat": -26.8083,
    "lon": -65.2176,
    "utc": "-03:00"
  },
  {
    "city": "Mar del Plata",
    "country": "Argentina",
    "lat": -38.0055,
    "lon": -57.5426,
    "utc": "-03:00"
  },
  {
    "city": "Salta",
    "country": "Argentina",
    "lat": -24.7829,
    "lon": -65.4232,
    "utc": "-03:00"
  },
  {
    "city": "Santa Fe",
    "country": "Argentina",
    "lat": -31.6333,
    "lon": -60.7,
    "utc": "-03:00"
  },
  {
    "city": "San Juan",
    "country": "Argentina",
    "lat": -31.5375,
    "lon": -68.5364,
    "utc": "-03:00"
  },
  {
    "city": "Resistencia",
    "country": "Argentina",
    "lat": -27.4514,
    "lon": -58.9867,
    "utc": "-03:00"
  },
  {
    "city": "Neuquén",
    "country": "Argentina",
    "lat": -38.9516,
    "lon": -68.0591,
    "utc": "-03:00"
  },
  {
    "city": "Bahía Blanca",
    "country": "Argentina",
    "lat": -38.7196,
    "lon": -62.2724,
    "utc": "-03:00"
  },
  {
    "city": "Santiago",
    "country": "Chile",
    "lat": -33.4489,
    "lon": -70.6693,
    "utc": "-04:00"
  },
  {
    "city": "Valparaíso",
    "country": "Chile",
    "lat": -33.0472,
    "lon": -71.6127,
    "utc": "-04:00"
  },
  {
    "city": "Viña del Mar",
    "country": "Chile",
    "lat": -33.0245,
    "lon": -71.5518,
    "utc": "-04:00"
  },
  {
    "city": "Concepción",
    "country": "Chile",
    "lat": -36.8201,
    "lon": -73.0444,
    "utc": "-04:00"
  },
  {
    "city": "La Serena",
    "country": "Chile",
    "lat": -29.9045,
    "lon": -71.2489,
    "utc": "-04:00"
  },
  {
    "city": "Antofagasta",
    "country": "Chile",
    "lat": -23.6509,
    "lon": -70.3975,
    "utc": "-04:00"
  },
  {
    "city": "Temuco",
    "country": "Chile",
    "lat": -38.7359,
    "lon": -72.5904,
    "utc": "-04:00"
  },
  {
    "city": "Iquique",
    "country": "Chile",
    "lat": -20.2307,
    "lon": -70.1357,
    "utc": "-04:00"
  },
  {
    "city": "Rancagua",
    "country": "Chile",
    "lat": -34.1708,
    "lon": -70.7444,
    "utc": "-04:00"
  },
  {
    "city": "Puerto Montt",
    "country": "Chile",
    "lat": -41.4693,
    "lon": -72.9424,
    "utc": "-04:00"
  },
  {
    "city": "Sao Paulo",
    "country": "Brazil",
    "lat": -23.5505,
    "lon": -46.6333,
    "utc": "-03:00"
  },
  {
    "city": "Rio de Janeiro",
    "country": "Brazil",
    "lat": -22.9068,
    "lon": -43.1729,
    "utc": "-03:00"
  },
  {
    "city": "Brasília",
    "country": "Brazil",
    "lat": -15.7939,
    "lon": -47.8828,
    "utc": "-03:00"
  },
  {
    "city": "Salvador",
    "country": "Brazil",
    "lat": -12.9777,
    "lon": -38.5016,
    "utc": "-03:00"
  },
  {
    "city": "Fortaleza",
    "country": "Brazil",
    "lat": -3.7319,
    "lon": -38.5267,
    "utc": "-03:00"
  },
  {
    "city": "Belo Horizonte",
    "country": "Brazil",
    "lat": -19.9167,
    "lon": -43.9345,
    "utc": "-03:00"
  },
  {
    "city": "Manaus",
    "country": "Brazil",
    "lat": -3.119,
    "lon": -60.0217,
    "utc": "-04:00"
  },
  {
    "city": "Curitiba",
    "country": "Brazil",
    "lat": -25.4284,
    "lon": -49.2733,
    "utc": "-03:00"
  },
  {
    "city": "Recife",
    "country": "Brazil",
    "lat": -8.0476,
    "lon": -34.877,
    "utc": "-03:00"
  },
  {
    "city": "Porto Alegre",
    "country": "Brazil",
    "lat": -30.0346,
    "lon": -51.2177,
    "utc": "-03:00"
  },
  {
    "city": "Belém",
    "country": "Brazil",
    "lat": -1.4558,
    "lon": -48.5044,
    "utc": "-03:00"
  },
  {
    "city": "Goiânia",
    "country": "Brazil",
    "lat": -16.6869,
    "lon": -49.2648,
    "utc": "-03:00"
  },
  {
    "city": "Guarulhos",
    "country": "Brazil",
    "lat": -23.4538,
    "lon": -46.5333,
    "utc": "-03:00"
  },
  {
    "city": "Campinas",
    "country": "Brazil",
    "lat": -22.9099,
    "lon": -47.0626,
    "utc": "-03:00"
  },
  {
    "city": "São Luís",
    "country": "Brazil",
    "lat": -2.5391,
    "lon": -44.2829,
    "utc": "-03:00"
  },
  {
    "city": "Maceió",
    "country": "Brazil",
    "lat": -9.6498,
    "lon": -35.7089,
    "utc": "-03:00"
  },
  {
    "city": "Natal",
    "country": "Brazil",
    "lat": -5.7945,
    "lon": -35.211,
    "utc": "-03:00"
  },
  {
    "city": "João Pessoa",
    "country": "Brazil",
    "lat": -7.1195,
    "lon": -34.845,
    "utc": "-03:00"
  },
  {
    "city": "Campo Grande",
    "country": "Brazil",
    "lat": -20.4697,
    "lon": -54.6201,
    "utc": "-04:00"
  },
  {
    "city": "Cuiabá",
    "country": "Brazil",
    "lat": -15.6014,
    "lon": -56.0979,
    "utc": "-04:00"
  },
  {
    "city": "Florianópolis",
    "country": "Brazil",
    "lat": -27.5949,
    "lon": -48.5482,
    "utc": "-03:00"
  },
  {
    "city": "Aracaju",
    "country": "Brazil",
    "lat": -10.9472,
    "lon": -37.0731,
    "utc": "-03:00"
  },
  {
    "city": "Teresina",
    "country": "Brazil",
    "lat": -5.092,
    "lon": -42.8034,
    "utc": "-03:00"
  },
  {
    "city": "Ribeirão Preto",
    "country": "Brazil",
    "lat": -21.1775,
    "lon": -47.8103,
    "utc": "-03:00"
  },
  {
    "city": "Sorocaba",
    "country": "Brazil",
    "lat": -23.5015,
    "lon": -47.4526,
    "utc": "-03:00"
  },
  {
    "city": "Niterói",
    "country": "Brazil",
    "lat": -22.8832,
    "lon": -43.1034,
    "utc": "-03:00"
  },
  {
    "city": "Santos",
    "country": "Brazil",
    "lat": -23.9618,
    "lon": -46.3322,
    "utc": "-03:00"
  },
  {
    "city": "Uberlândia",
    "country": "Brazil",
    "lat": -18.9186,
    "lon": -48.2772,
    "utc": "-03:00"
  },
  {
    "city": "Londrina",
    "country": "Brazil",
    "lat": -23.3045,
    "lon": -51.1696,
    "utc": "-03:00"
  },
  {
    "city": "Maringá",
    "country": "Brazil",
    "lat": -23.4205,
    "lon": -51.9331,
    "utc": "-03:00"
  },
  {
    "city": "Foz do Iguaçu",
    "country": "Brazil",
    "lat": -25.5163,
    "lon": -54.5854,
    "utc": "-03:00"
  },
  {
    "city": "Joinville",
    "country": "Brazil",
    "lat": -26.3044,
    "lon": -48.8487,
    "utc": "-03:00"
  },
  {
    "city": "Blumenau",
    "country": "Brazil",
    "lat": -26.9194,
    "lon": -49.0661,
    "utc": "-03:00"
  },
  {
    "city": "Caxias do Sul",
    "country": "Brazil",
    "lat": -29.1634,
    "lon": -51.1797,
    "utc": "-03:00"
  },
  {
    "city": "Pelotas",
    "country": "Brazil",
    "lat": -31.7654,
    "lon": -52.3376,
    "utc": "-03:00"
  },
  {
    "city": "Puebla de Zaragoza",
    "country": "Mexico",
    "lat": 19.0414,
    "lon": -98.2063,
    "utc": "-06:00"
  },
  {
    "city": "Zapopan",
    "country": "Mexico",
    "lat": 20.7236,
    "lon": -103.3848,
    "utc": "-06:00"
  },
  {
    "city": "Torreón",
    "country": "Mexico",
    "lat": 25.5428,
    "lon": -103.4068,
    "utc": "-06:00"
  },
  {
    "city": "Coatzacoalcos",
    "country": "Mexico",
    "lat": 18.1411,
    "lon": -94.4447,
    "utc": "-06:00"
  },
  {
    "city": "Ensenada",
    "country": "Mexico",
    "lat": 31.8667,
    "lon": -116.6,
    "utc": "-08:00"
  },
  {
    "city": "Playa del Carmen",
    "country": "Mexico",
    "lat": 20.6296,
    "lon": -87.0739,
    "utc": "-05:00"
  },
  {
    "city": "Puerto Vallarta",
    "country": "Mexico",
    "lat": 20.6534,
    "lon": -105.2253,
    "utc": "-06:00"
  },
  {
    "city": "Chetumal",
    "country": "Mexico",
    "lat": 18.5001,
    "lon": -88.2961,
    "utc": "-05:00"
  },
  {
    "city": "Matamoros",
    "country": "Mexico",
    "lat": 25.869,
    "lon": -97.5027,
    "utc": "-06:00"
  },
  {
    "city": "Pachuca",
    "country": "Mexico",
    "lat": 20.1011,
    "lon": -98.7591,
    "utc": "-06:00"
  },
  {
    "city": "Xalapa",
    "country": "Mexico",
    "lat": 19.5438,
    "lon": -96.9102,
    "utc": "-06:00"
  },
  {
    "city": "La Paz",
    "country": "Mexico",
    "lat": 24.1426,
    "lon": -110.3128,
    "utc": "-07:00"
  },
  {
    "city": "Monclova",
    "country": "Mexico",
    "lat": 26.9076,
    "lon": -101.4215,
    "utc": "-06:00"
  },
  {
    "city": "Puerto Peñasco",
    "country": "Mexico",
    "lat": 31.3264,
    "lon": -113.531,
    "utc": "-07:00"
  },
  {
    "city": "Whitehorse",
    "country": "Canada",
    "lat": 60.7212,
    "lon": -135.0568,
    "utc": "-07:00"
  },
  {
    "city": "Yellowknife",
    "country": "Canada",
    "lat": 62.454,
    "lon": -114.3718,
    "utc": "-07:00"
  },
  {
    "city": "Prince George",
    "country": "Canada",
    "lat": 53.9171,
    "lon": -122.7497,
    "utc": "-08:00"
  },
  {
    "city": "Kamloops",
    "country": "Canada",
    "lat": 50.6745,
    "lon": -120.3273,
    "utc": "-08:00"
  },
  {
    "city": "Windsor",
    "country": "Canada",
    "lat": 42.3149,
    "lon": -83.0364,
    "utc": "-05:00"
  },
  {
    "city": "Oshawa",
    "country": "Canada",
    "lat": 43.8971,
    "lon": -78.8658,
    "utc": "-05:00"
  },
  {
    "city": "Kingston",
    "country": "Canada",
    "lat": 44.2312,
    "lon": -76.486,
    "utc": "-05:00"
  },
  {
    "city": "Laval",
    "country": "Canada",
    "lat": 45.6066,
    "lon": -73.7124,
    "utc": "-05:00"
  },
  {
    "city": "Gatineau",
    "country": "Canada",
    "lat": 45.4765,
    "lon": -75.7013,
    "utc": "-05:00"
  },
  {
    "city": "Saguenay",
    "country": "Canada",
    "lat": 48.4283,
    "lon": -71.0685,
    "utc": "-05:00"
  },
  {
    "city": "Barrie",
    "country": "Canada",
    "lat": 44.3894,
    "lon": -79.6903,
    "utc": "-05:00"
  },
  {
    "city": "Cuscatancingo",
    "country": "El Salvador",
    "lat": 13.7361,
    "lon": -89.1803,
    "utc": "-06:00"
  },
  {
    "city": "Quezaltepeque",
    "country": "El Salvador",
    "lat": 13.8312,
    "lon": -89.2722,
    "utc": "-06:00"
  },
  {
    "city": "Puerto Cortés",
    "country": "Honduras",
    "lat": 15.8256,
    "lon": -87.9297,
    "utc": "-06:00"
  },
  {
    "city": "Comayagua",
    "country": "Honduras",
    "lat": 14.4514,
    "lon": -87.6375,
    "utc": "-06:00"
  },
  {
    "city": "Masaya",
    "country": "Nicaragua",
    "lat": 11.9744,
    "lon": -86.0942,
    "utc": "-06:00"
  },
  {
    "city": "Chinandega",
    "country": "Nicaragua",
    "lat": 12.6247,
    "lon": -87.1271,
    "utc": "-06:00"
  },
  {
    "city": "Liberia",
    "country": "Costa Rica",
    "lat": 10.6346,
    "lon": -85.4377,
    "utc": "-06:00"
  },
  {
    "city": "San Isidro de El General",
    "country": "Costa Rica",
    "lat": 9.3724,
    "lon": -83.7039,
    "utc": "-06:00"
  },
  {
    "city": "Chitré",
    "country": "Panama",
    "lat": 7.9667,
    "lon": -80.4333,
    "utc": "-05:00"
  },
  {
    "city": "Valencia",
    "country": "Ecuador",
    "lat": -0.9494,
    "lon": -79.3551,
    "utc": "-05:00"
  },
  {
    "city": "Riobamba",
    "country": "Ecuador",
    "lat": -1.6635,
    "lon": -78.6546,
    "utc": "-05:00"
  },
  {
    "city": "Portoviejo",
    "country": "Ecuador",
    "lat": -1.0546,
    "lon": -80.4545,
    "utc": "-05:00"
  },
  {
    "city": "Esmeraldas",
    "country": "Ecuador",
    "lat": 0.9592,
    "lon": -79.6539,
    "utc": "-05:00"
  },
  {
    "city": "Tulcán",
    "country": "Ecuador",
    "lat": 0.8119,
    "lon": -77.7173,
    "utc": "-05:00"
  },
  {
    "city": "Juliaca",
    "country": "Peru",
    "lat": -15.4997,
    "lon": -70.1332,
    "utc": "-05:00"
  },
  {
    "city": "Chimbote",
    "country": "Peru",
    "lat": -9.0853,
    "lon": -78.5783,
    "utc": "-05:00"
  },
  {
    "city": "Ayacucho",
    "country": "Peru",
    "lat": -13.1631,
    "lon": -74.2242,
    "utc": "-05:00"
  },
  {
    "city": "Cajamarca",
    "country": "Peru",
    "lat": -7.1617,
    "lon": -78.5003,
    "utc": "-05:00"
  },
  {
    "city": "Tarapoto",
    "country": "Peru",
    "lat": -6.4824,
    "lon": -76.3732,
    "utc": "-05:00"
  },
  {
    "city": "Cobija",
    "country": "Bolivia",
    "lat": -11.0267,
    "lon": -68.7692,
    "utc": "-04:00"
  },
  {
    "city": "Montero",
    "country": "Bolivia",
    "lat": -17.3387,
    "lon": -63.2505,
    "utc": "-04:00"
  },
  {
    "city": "Villazón",
    "country": "Bolivia",
    "lat": -22.0866,
    "lon": -65.5942,
    "utc": "-04:00"
  },
  {
    "city": "Pedro Juan Caballero",
    "country": "Paraguay",
    "lat": -22.5472,
    "lon": -55.7333,
    "utc": "-04:00"
  },
  {
    "city": "Villarrica",
    "country": "Paraguay",
    "lat": -25.7495,
    "lon": -56.4352,
    "utc": "-04:00"
  },
  {
    "city": "Pilar",
    "country": "Paraguay",
    "lat": -26.8587,
    "lon": -58.3064,
    "utc": "-04:00"
  },
  {
    "city": "Rivera",
    "country": "Uruguay",
    "lat": -30.9053,
    "lon": -55.5508,
    "utc": "-03:00"
  },
  {
    "city": "Mercedes",
    "country": "Uruguay",
    "lat": -33.2534,
    "lon": -58.0308,
    "utc": "-03:00"
  },
  {
    "city": "Colonia del Sacramento",
    "country": "Uruguay",
    "lat": -34.4714,
    "lon": -57.8442,
    "utc": "-03:00"
  },
  {
    "city": "Canelones",
    "country": "Uruguay",
    "lat": -34.5228,
    "lon": -56.2778,
    "utc": "-03:00"
  },
  {
    "city": "Posadas",
    "country": "Argentina",
    "lat": -27.3671,
    "lon": -55.8961,
    "utc": "-03:00"
  },
  {
    "city": "Formosa",
    "country": "Argentina",
    "lat": -26.1775,
    "lon": -58.1781,
    "utc": "-03:00"
  },
  {
    "city": "Jujuy",
    "country": "Argentina",
    "lat": -24.1858,
    "lon": -65.2995,
    "utc": "-03:00"
  },
  {
    "city": "Comodoro Rivadavia",
    "country": "Argentina",
    "lat": -45.8641,
    "lon": -67.4966,
    "utc": "-03:00"
  },
  {
    "city": "Río Gallegos",
    "country": "Argentina",
    "lat": -51.623,
    "lon": -69.2181,
    "utc": "-03:00"
  },
  {
    "city": "Ushuaia",
    "country": "Argentina",
    "lat": -54.8019,
    "lon": -68.303,
    "utc": "-03:00"
  },
  {
    "city": "San Luis",
    "country": "Argentina",
    "lat": -33.3017,
    "lon": -66.3378,
    "utc": "-03:00"
  },
  {
    "city": "Paraná",
    "country": "Argentina",
    "lat": -31.7413,
    "lon": -60.5115,
    "utc": "-03:00"
  },
  {
    "city": "Tandil",
    "country": "Argentina",
    "lat": -37.3217,
    "lon": -59.1332,
    "utc": "-03:00"
  },
  {
    "city": "Puerto Madryn",
    "country": "Argentina",
    "lat": -42.7692,
    "lon": -65.0385,
    "utc": "-03:00"
  },
  {
    "city": "Antofagasta de la Sierra",
    "country": "Argentina",
    "lat": -26.0529,
    "lon": -67.4044,
    "utc": "-03:00"
  },
  {
    "city": "Talca",
    "country": "Chile",
    "lat": -35.4264,
    "lon": -71.6554,
    "utc": "-04:00"
  },
  {
    "city": "Arica",
    "country": "Chile",
    "lat": -18.4783,
    "lon": -70.3126,
    "utc": "-04:00"
  },
  {
    "city": "Osorno",
    "country": "Chile",
    "lat": -40.5739,
    "lon": -73.1335,
    "utc": "-04:00"
  },
  {
    "city": "Punta Arenas",
    "country": "Chile",
    "lat": -53.1638,
    "lon": -70.9171,
    "utc": "-03:00"
  },
  {
    "city": "Copiapó",
    "country": "Chile",
    "lat": -27.3668,
    "lon": -70.3322,
    "utc": "-04:00"
  },
  {
    "city": "Calama",
    "country": "Chile",
    "lat": -22.4607,
    "lon": -68.93,
    "utc": "-04:00"
  },
  {
    "city": "Puerto Varas",
    "country": "Chile",
    "lat": -41.3195,
    "lon": -72.9854,
    "utc": "-04:00"
  },
  {
    "city": "Barinas",
    "country": "Venezuela",
    "lat": 8.6226,
    "lon": -70.2075,
    "utc": "-04:00"
  },
  {
    "city": "Mérida",
    "country": "Venezuela",
    "lat": 8.5897,
    "lon": -71.1561,
    "utc": "-04:00"
  },
  {
    "city": "San Cristóbal",
    "country": "Venezuela",
    "lat": 7.7669,
    "lon": -72.225,
    "utc": "-04:00"
  },
  {
    "city": "Puerto La Cruz",
    "country": "Venezuela",
    "lat": 10.2138,
    "lon": -64.6328,
    "utc": "-04:00"
  },
  {
    "city": "Puerto Ordaz",
    "country": "Venezuela",
    "lat": 8.2818,
    "lon": -62.7241,
    "utc": "-04:00"
  },
  {
    "city": "Valera",
    "country": "Venezuela",
    "lat": 9.3178,
    "lon": -70.6036,
    "utc": "-04:00"
  },
  {
    "city": "Cabimas",
    "country": "Venezuela",
    "lat": 10.3991,
    "lon": -71.4521,
    "utc": "-04:00"
  },
  {
    "city": "Punto Fijo",
    "country": "Venezuela",
    "lat": 11.6917,
    "lon": -70.1995,
    "utc": "-04:00"
  },
  {
    "city": "Merida",
    "country": "Mexico",
    "lat": 20.9674,
    "lon": -89.5926,
    "utc": "-06:00"
  },
  {
    "city": "Laval QC",
    "country": "Canada",
    "lat": 45.6066,
    "lon": -73.7124,
    "utc": "-05:00"
  }
]